{
  "facilities": [
    {
      "id": "fac_new-york-ny_001",
      "name": "Erickson Living of New York",
      "address": "3641 Oak Ave",
      "city": "New York",
      "state": "New York",
      "zip_code": "47749",
      "phone": "(897) 555-1186",
      "website": "https://www.ericksonlivingnewyork.com",
      "coordinates": {
        "lat": 40.75046812282519,
        "lng": -74.00427360534971
      },
      "facility_type": [
        "Independent Living",
        "Memory Care",
        "Hospice Care"
      ],
      "features": [
        "Fitness Center",
        "Game Room",
        "Concierge Services",
        "Emergency Call System"
      ],
      "capacity": 229,
      "ratings": {
        "overall": 3.6,
        "care_quality": 4.0,
        "facilities": 4.4,
        "staff": 4.4,
        "value": 3.5,
        "review_count": 38
      },
      "city_slug": "new-york-ny"
    },
    {
      "id": "fac_new-york-ny_002",
      "name": "The Arbor Company of New York",
      "address": "7222 Oak Ave",
      "city": "New York",
      "state": "New York",
      "zip_code": "74710",
      "phone": "(902) 555-4783",
      "website": "https://www.thearborcompanynewyork.com",
      "coordinates": {
        "lat": 40.71951076086657,
        "lng": -73.98351862009895
      },
      "facility_type": [
        "Assisted Living"
      ],
      "features": [
        "Swimming Pool",
        "Restaurant-style Dining",
        "Social Activities"
      ],
      "capacity": 198,
      "ratings": {
        "overall": 3.7,
        "care_quality": 4.8,
        "facilities": 4.5,
        "staff": 3.9,
        "value": 3.7,
        "review_count": 12
      },
      "city_slug": "new-york-ny"
    },
    {
      "id": "fac_new-york-ny_003",
      "name": "Watermark Retirement of New York",
      "address": "2617 Oak Ave",
      "city": "New York",
      "state": "New York",
      "zip_code": "67791",
      "phone": "(499) 555-4392",
      "website": "https://www.watermarkretirementnewyork.com",
      "coordinates": {
        "lat": 40.73257763248618,
        "lng": -73.99412235740063
      },
      "facility_type": [
        "Rehabilitation"
      ],
      "features": [
        "Courtyard",
        "Private Rooms",
        "Transportation Services",
        "Beauty Salon",
        "Housekeeping",
        "Movie Theater",
        "Walking Paths"
      ],
      "capacity": 147,
      "ratings": {
        "overall": 4.4,
        "care_quality": 4.2,
        "facilities": 4.9,
        "staff": 4.6,
        "value": 3.7,
        "review_count": 95
      },
      "city_slug": "new-york-ny"
    },
    {
      "id": "fac_new-york-ny_004",
      "name": "Legend Senior Living of New York",
      "address": "758 Maple Dr",
      "city": "New York",
      "state": "New York",
      "zip_code": "68357",
      "phone": "(278) 555-8047",
      "website": "https://www.legendseniorlivingnewyork.com",
      "coordinates": {
        "lat": 40.71434617860705,
        "lng": -73.96388137278815
      },
      "facility_type": [
        "Independent Living"
      ],
      "features": [
        "24-hour Staff",
        "Game Room",
        "Emergency Call System",
        "Restaurant-style Dining",
        "Social Activities"
      ],
      "capacity": 118,
      "ratings": {
        "overall": 4.3,
        "care_quality": 3.6,
        "facilities": 4.3,
        "staff": 3.7,
        "value": 4.1,
        "review_count": 53
      },
      "city_slug": "new-york-ny"
    },
    {
      "id": "fac_new-york-ny_005",
      "name": "Five Star Senior Living of New York",
      "address": "3302 Washington Blvd",
      "city": "New York",
      "state": "New York",
      "zip_code": "21816",
      "phone": "(464) 555-1001",
      "website": "https://www.fivestarseniorlivingnewyork.com",
      "coordinates": {
        "lat": 40.71328899117775,
        "lng": -73.99755424828598
      },
      "facility_type": [
        "Independent Living",
        "Respite Care"
      ],
      "features": [
        "Wellness Center",
        "Library",
        "Restaurant-style Dining",
        "Private Rooms"
      ],
      "capacity": 83,
      "ratings": {
        "overall": 4.2,
        "care_quality": 4.7,
        "facilities": 4.6,
        "staff": 4.4,
        "value": 4.8,
        "review_count": 71
      },
      "city_slug": "new-york-ny"
    },
    {
      "id": "fac_new-york-ny_006",
      "name": "Holiday Retirement of New York",
      "address": "3982 Main St",
      "city": "New York",
      "state": "New York",
      "zip_code": "45057",
      "phone": "(361) 555-9771",
      "website": "https://www.holidayretirementnewyork.com",
      "coordinates": {
        "lat": 40.70532689589198,
        "lng": -74.04127383642171
      },
      "facility_type": [
        "Assisted Living",
        "Continuing Care Retirement Community"
      ],
      "features": [
        "Library",
        "Housekeeping",
        "Swimming Pool",
        "Movie Theater",
        "Community Garden",
        "Transportation Services",
        "Pet Friendly"
      ],
      "capacity": 76,
      "ratings": {
        "overall": 5.0,
        "care_quality": 3.8,
        "facilities": 4.8,
        "staff": 4.2,
        "value": 5.0,
        "review_count": 32
      },
      "city_slug": "new-york-ny"
    },
    {
      "id": "fac_new-york-ny_007",
      "name": "Erickson Living of New York",
      "address": "947 Main St",
      "city": "New York",
      "state": "New York",
      "zip_code": "61536",
      "phone": "(510) 555-7262",
      "website": "https://www.ericksonlivingnewyork.com",
      "coordinates": {
        "lat": 40.73610837924587,
        "lng": -74.02318443849427
      },
      "facility_type": [
        "Continuing Care Retirement Community",
        "Hospice Care"
      ],
      "features": [
        "Courtyard",
        "Physical Therapy",
        "Pet Friendly",
        "Private Rooms",
        "Swimming Pool",
        "Library",
        "Movie Theater"
      ],
      "capacity": 187,
      "ratings": {
        "overall": 4.6,
        "care_quality": 3.7,
        "facilities": 4.9,
        "staff": 3.8,
        "value": 4.2,
        "review_count": 62
      },
      "city_slug": "new-york-ny"
    },
    {
      "id": "fac_new-york-ny_008",
      "name": "Holiday Retirement of New York",
      "address": "8018 Oak Ave",
      "city": "New York",
      "state": "New York",
      "zip_code": "42595",
      "phone": "(758) 555-6814",
      "website": "https://www.holidayretirementnewyork.com",
      "coordinates": {
        "lat": 40.70238981097984,
        "lng": -74.00136658303305
      },
      "facility_type": [
        "Hospice Care"
      ],
      "features": [
        "Wellness Center",
        "Emergency Call System",
        "Fitness Center",
        "Social Activities"
      ],
      "capacity": 57,
      "ratings": {
        "overall": 3.5,
        "care_quality": 3.8,
        "facilities": 4.0,
        "staff": 3.7,
        "value": 4.1,
        "review_count": 67
      },
      "city_slug": "new-york-ny"
    },
    {
      "id": "fac_new-york-ny_009",
      "name": "Legend Senior Living of New York",
      "address": "6048 Lake St",
      "city": "New York",
      "state": "New York",
      "zip_code": "32417",
      "phone": "(355) 555-7380",
      "website": "https://www.legendseniorlivingnewyork.com",
      "coordinates": {
        "lat": 40.75013508208168,
        "lng": -74.00102965400797
      },
      "facility_type": [
        "Hospice Care"
      ],
      "features": [
        "Emergency Call System",
        "Social Activities",
        "Transportation Services",
        "Physical Therapy"
      ],
      "capacity": 152,
      "ratings": {
        "overall": 4.4,
        "care_quality": 4.3,
        "facilities": 4.6,
        "staff": 3.6,
        "value": 4.3,
        "review_count": 37
      },
      "city_slug": "new-york-ny"
    },
    {
      "id": "fac_new-york-ny_010",
      "name": "Watermark Retirement of New York",
      "address": "6634 Maple Dr",
      "city": "New York",
      "state": "New York",
      "zip_code": "53892",
      "phone": "(724) 555-5744",
      "website": "https://www.watermarkretirementnewyork.com",
      "coordinates": {
        "lat": 40.71250783099808,
        "lng": -74.04393218320463
      },
      "facility_type": [
        "Skilled Nursing",
        "Memory Care",
        "Rehabilitation"
      ],
      "features": [
        "Walking Paths",
        "Pet Friendly",
        "Movie Theater",
        "Fine Dining",
        "Arts & Crafts Studio"
      ],
      "capacity": 229,
      "ratings": {
        "overall": 4.9,
        "care_quality": 4.8,
        "facilities": 4.4,
        "staff": 5.0,
        "value": 4.9,
        "review_count": 12
      },
      "city_slug": "new-york-ny"
    },
    {
      "id": "fac_los-angeles-ca_001",
      "name": "Silverado Senior Living of Los Angeles",
      "address": "1334 Maple Dr",
      "city": "Los Angeles",
      "state": "California",
      "zip_code": "23129",
      "phone": "(610) 555-8993",
      "website": "https://www.silveradoseniorlivinglosangeles.com",
      "coordinates": {
        "lat": 34.09685427750334,
        "lng": -118.20154034063303
      },
      "facility_type": [
        "Independent Living",
        "Rehabilitation"
      ],
      "features": [
        "Concierge Services",
        "Weekly Events",
        "Library"
      ],
      "capacity": 51,
      "ratings": {
        "overall": 3.6,
        "care_quality": 5.0,
        "facilities": 3.6,
        "staff": 4.4,
        "value": 4.3,
        "review_count": 17
      },
      "city_slug": "los-angeles-ca"
    },
    {
      "id": "fac_los-angeles-ca_002",
      "name": "Sunrise Senior Living of Los Angeles",
      "address": "6958 Main St",
      "city": "Los Angeles",
      "state": "California",
      "zip_code": "51082",
      "phone": "(797) 555-4925",
      "website": "https://www.sunriseseniorlivinglosangeles.com",
      "coordinates": {
        "lat": 34.07712499416687,
        "lng": -118.21802446749302
      },
      "facility_type": [
        "Skilled Nursing",
        "Rehabilitation",
        "Continuing Care Retirement Community"
      ],
      "features": [
        "Social Activities",
        "Fitness Center",
        "Wellness Center",
        "Swimming Pool"
      ],
      "capacity": 57,
      "ratings": {
        "overall": 4.3,
        "care_quality": 4.8,
        "facilities": 3.5,
        "staff": 4.5,
        "value": 4.8,
        "review_count": 36
      },
      "city_slug": "los-angeles-ca"
    },
    {
      "id": "fac_los-angeles-ca_003",
      "name": "Life Care Services of Los Angeles",
      "address": "5433 Oak Ave",
      "city": "Los Angeles",
      "state": "California",
      "zip_code": "10542",
      "phone": "(306) 555-8533",
      "website": "https://www.lifecareserviceslosangeles.com",
      "coordinates": {
        "lat": 34.02917108182558,
        "lng": -118.29214723034842
      },
      "facility_type": [
        "Independent Living",
        "Assisted Living",
        "Skilled Nursing"
      ],
      "features": [
        "Housekeeping",
        "Swimming Pool",
        "Courtyard",
        "Fine Dining"
      ],
      "capacity": 225,
      "ratings": {
        "overall": 4.3,
        "care_quality": 4.1,
        "facilities": 4.3,
        "staff": 3.6,
        "value": 4.5,
        "review_count": 45
      },
      "city_slug": "los-angeles-ca"
    },
    {
      "id": "fac_los-angeles-ca_004",
      "name": "Life Care Services of Los Angeles",
      "address": "8438 Main St",
      "city": "Los Angeles",
      "state": "California",
      "zip_code": "83045",
      "phone": "(605) 555-3536",
      "website": "https://www.lifecareserviceslosangeles.com",
      "coordinates": {
        "lat": 34.02508493967549,
        "lng": -118.257530596236
      },
      "facility_type": [
        "Independent Living",
        "Assisted Living",
        "Hospice Care"
      ],
      "features": [
        "Courtyard",
        "Movie Theater",
        "24-hour Staff",
        "Social Activities"
      ],
      "capacity": 215,
      "ratings": {
        "overall": 3.6,
        "care_quality": 3.9,
        "facilities": 4.6,
        "staff": 4.6,
        "value": 4.8,
        "review_count": 19
      },
      "city_slug": "los-angeles-ca"
    },
    {
      "id": "fac_los-angeles-ca_005",
      "name": "Elmcroft Senior Living of Los Angeles",
      "address": "4077 Oak Ave",
      "city": "Los Angeles",
      "state": "California",
      "zip_code": "58771",
      "phone": "(829) 555-9341",
      "website": "https://www.elmcrtseniorlivinglosangeles.com",
      "coordinates": {
        "lat": 34.03518987823161,
        "lng": -118.2409603115537
      },
      "facility_type": [
        "Rehabilitation"
      ],
      "features": [
        "Fitness Programs",
        "Emergency Call System",
        "Housekeeping"
      ],
      "capacity": 179,
      "ratings": {
        "overall": 3.5,
        "care_quality": 3.9,
        "facilities": 4.4,
        "staff": 3.6,
        "value": 4.7,
        "review_count": 31
      },
      "city_slug": "los-angeles-ca"
    },
    {
      "id": "fac_los-angeles-ca_006",
      "name": "Atria Senior Living of Los Angeles",
      "address": "841 Washington Blvd",
      "city": "Los Angeles",
      "state": "California",
      "zip_code": "17348",
      "phone": "(337) 555-1065",
      "website": "https://www.atriaseniorlivinglosangeles.com",
      "coordinates": {
        "lat": 34.09748314383287,
        "lng": -118.21627394110101
      },
      "facility_type": [
        "Skilled Nursing",
        "Respite Care",
        "Memory Care"
      ],
      "features": [
        "Weekly Events",
        "Wellness Center",
        "Restaurant-style Dining",
        "Fine Dining",
        "Courtyard",
        "Arts & Crafts Studio",
        "Concierge Services"
      ],
      "capacity": 51,
      "ratings": {
        "overall": 3.5,
        "care_quality": 4.1,
        "facilities": 4.2,
        "staff": 4.9,
        "value": 4.7,
        "review_count": 42
      },
      "city_slug": "los-angeles-ca"
    },
    {
      "id": "fac_los-angeles-ca_007",
      "name": "Oakmont Senior Living of Los Angeles",
      "address": "3688 Maple Dr",
      "city": "Los Angeles",
      "state": "California",
      "zip_code": "91733",
      "phone": "(417) 555-9818",
      "website": "https://www.oakmontseniorlivinglosangeles.com",
      "coordinates": {
        "lat": 34.00586662057958,
        "lng": -118.22330430291885
      },
      "facility_type": [
        "Skilled Nursing"
      ],
      "features": [
        "Social Activities",
        "Beauty Salon",
        "Courtyard",
        "Swimming Pool",
        "Physical Therapy",
        "Library"
      ],
      "capacity": 214,
      "ratings": {
        "overall": 4.4,
        "care_quality": 4.0,
        "facilities": 4.1,
        "staff": 3.6,
        "value": 3.8,
        "review_count": 90
      },
      "city_slug": "los-angeles-ca"
    },
    {
      "id": "fac_los-angeles-ca_008",
      "name": "Senior Lifestyle of Los Angeles",
      "address": "5350 Main St",
      "city": "Los Angeles",
      "state": "California",
      "zip_code": "38268",
      "phone": "(841) 555-7108",
      "website": "https://www.seniorlifestylelosangeles.com",
      "coordinates": {
        "lat": 34.06016047330974,
        "lng": -118.28881105038165
      },
      "facility_type": [
        "Rehabilitation"
      ],
      "features": [
        "Fine Dining",
        "Weekly Events",
        "Swimming Pool",
        "Transportation Services",
        "Movie Theater"
      ],
      "capacity": 227,
      "ratings": {
        "overall": 3.8,
        "care_quality": 3.8,
        "facilities": 3.8,
        "staff": 4.8,
        "value": 5.0,
        "review_count": 88
      },
      "city_slug": "los-angeles-ca"
    },
    {
      "id": "fac_los-angeles-ca_009",
      "name": "Erickson Living of Los Angeles",
      "address": "6031 Main St",
      "city": "Los Angeles",
      "state": "California",
      "zip_code": "75266",
      "phone": "(369) 555-2869",
      "website": "https://www.ericksonlivinglosangeles.com",
      "coordinates": {
        "lat": 34.08706799975442,
        "lng": -118.26613474786768
      },
      "facility_type": [
        "Skilled Nursing",
        "Independent Living"
      ],
      "features": [
        "Fitness Programs",
        "Library",
        "24-hour Nursing"
      ],
      "capacity": 156,
      "ratings": {
        "overall": 3.7,
        "care_quality": 4.4,
        "facilities": 4.9,
        "staff": 4.8,
        "value": 4.0,
        "review_count": 48
      },
      "city_slug": "los-angeles-ca"
    },
    {
      "id": "fac_chicago-il_001",
      "name": "Merrill Gardens of Chicago",
      "address": "8255 Park Rd",
      "city": "Chicago",
      "state": "Illinois",
      "zip_code": "40970",
      "phone": "(952) 555-2680",
      "website": "https://www.merrillgardenschicago.com",
      "coordinates": {
        "lat": 41.88152213610376,
        "lng": -87.613219165491
      },
      "facility_type": [
        "Memory Care"
      ],
      "features": [
        "Private Rooms",
        "Pet Friendly",
        "Fitness Center",
        "Transportation Services",
        "Fine Dining",
        "24-hour Nursing"
      ],
      "capacity": 195,
      "ratings": {
        "overall": 3.8,
        "care_quality": 4.8,
        "facilities": 4.0,
        "staff": 4.1,
        "value": 3.7,
        "review_count": 68
      },
      "city_slug": "chicago-il"
    },
    {
      "id": "fac_chicago-il_002",
      "name": "Senior Lifestyle of Chicago",
      "address": "5761 Lake St",
      "city": "Chicago",
      "state": "Illinois",
      "zip_code": "70389",
      "phone": "(637) 555-5314",
      "website": "https://www.seniorlifestylechicago.com",
      "coordinates": {
        "lat": 41.8358580351543,
        "lng": -87.6255420768486
      },
      "facility_type": [
        "Hospice Care",
        "Assisted Living",
        "Skilled Nursing"
      ],
      "features": [
        "Housekeeping",
        "Fitness Center",
        "Swimming Pool",
        "Arts & Crafts Studio",
        "Game Room"
      ],
      "capacity": 242,
      "ratings": {
        "overall": 4.0,
        "care_quality": 3.6,
        "facilities": 4.4,
        "staff": 4.4,
        "value": 4.1,
        "review_count": 65
      },
      "city_slug": "chicago-il"
    },
    {
      "id": "fac_chicago-il_003",
      "name": "Silverado Senior Living of Chicago",
      "address": "3866 Washington Blvd",
      "city": "Chicago",
      "state": "Illinois",
      "zip_code": "67828",
      "phone": "(424) 555-1115",
      "website": "https://www.silveradoseniorlivingchicago.com",
      "coordinates": {
        "lat": 41.85579048887076,
        "lng": -87.6025195595915
      },
      "facility_type": [
        "Skilled Nursing",
        "Hospice Care",
        "Respite Care"
      ],
      "features": [
        "24-hour Nursing",
        "Concierge Services",
        "Pet Friendly"
      ],
      "capacity": 163,
      "ratings": {
        "overall": 3.8,
        "care_quality": 4.1,
        "facilities": 4.4,
        "staff": 4.9,
        "value": 4.8,
        "review_count": 85
      },
      "city_slug": "chicago-il"
    },
    {
      "id": "fac_chicago-il_004",
      "name": "Artis Senior Living of Chicago",
      "address": "8236 Lake St",
      "city": "Chicago",
      "state": "Illinois",
      "zip_code": "42175",
      "phone": "(222) 555-3497",
      "website": "https://www.artisseniorlivingchicago.com",
      "coordinates": {
        "lat": 41.84675056217215,
        "lng": -87.64250250183717
      },
      "facility_type": [
        "Continuing Care Retirement Community",
        "Memory Care"
      ],
      "features": [
        "Pet Friendly",
        "Concierge Services",
        "Movie Theater",
        "Game Room"
      ],
      "capacity": 183,
      "ratings": {
        "overall": 4.3,
        "care_quality": 4.5,
        "facilities": 4.7,
        "staff": 4.4,
        "value": 4.2,
        "review_count": 77
      },
      "city_slug": "chicago-il"
    },
    {
      "id": "fac_chicago-il_005",
      "name": "Erickson Living of Chicago",
      "address": "3079 Main St",
      "city": "Chicago",
      "state": "Illinois",
      "zip_code": "70097",
      "phone": "(870) 555-9038",
      "website": "https://www.ericksonlivingchicago.com",
      "coordinates": {
        "lat": 41.861336513335836,
        "lng": -87.6354562223948
      },
      "facility_type": [
        "Assisted Living",
        "Independent Living"
      ],
      "features": [
        "Fitness Center",
        "Courtyard",
        "Walking Paths",
        "Physical Therapy"
      ],
      "capacity": 61,
      "ratings": {
        "overall": 4.1,
        "care_quality": 4.6,
        "facilities": 3.6,
        "staff": 3.7,
        "value": 3.6,
        "review_count": 100
      },
      "city_slug": "chicago-il"
    },
    {
      "id": "fac_chicago-il_006",
      "name": "Sunrise Senior Living of Chicago",
      "address": "4936 Lake St",
      "city": "Chicago",
      "state": "Illinois",
      "zip_code": "91084",
      "phone": "(541) 555-1423",
      "website": "https://www.sunriseseniorlivingchicago.com",
      "coordinates": {
        "lat": 41.895421124677995,
        "lng": -87.67198561150616
      },
      "facility_type": [
        "Skilled Nursing",
        "Hospice Care"
      ],
      "features": [
        "Arts & Crafts Studio",
        "Private Rooms",
        "Walking Paths",
        "Community Garden",
        "Courtyard",
        "Weekly Events"
      ],
      "capacity": 205,
      "ratings": {
        "overall": 4.2,
        "care_quality": 3.7,
        "facilities": 4.1,
        "staff": 3.8,
        "value": 4.6,
        "review_count": 63
      },
      "city_slug": "chicago-il"
    },
    {
      "id": "fac_chicago-il_007",
      "name": "Sunrise Villa of Chicago",
      "address": "9434 Lake St",
      "city": "Chicago",
      "state": "Illinois",
      "zip_code": "87919",
      "phone": "(231) 555-5246",
      "website": "https://www.sunrisevillachicago.com",
      "coordinates": {
        "lat": 41.853489451370386,
        "lng": -87.59967024177563
      },
      "facility_type": [
        "Independent Living",
        "Respite Care",
        "Assisted Living"
      ],
      "features": [
        "Movie Theater",
        "Swimming Pool",
        "24-hour Nursing",
        "Weekly Events"
      ],
      "capacity": 234,
      "ratings": {
        "overall": 4.0,
        "care_quality": 4.5,
        "facilities": 4.4,
        "staff": 4.5,
        "value": 4.4,
        "review_count": 87
      },
      "city_slug": "chicago-il"
    },
    {
      "id": "fac_chicago-il_008",
      "name": "Elmcroft Senior Living of Chicago",
      "address": "3086 Main St",
      "city": "Chicago",
      "state": "Illinois",
      "zip_code": "57153",
      "phone": "(845) 555-1066",
      "website": "https://www.elmcrtseniorlivingchicago.com",
      "coordinates": {
        "lat": 41.85488144907655,
        "lng": -87.678425544334
      },
      "facility_type": [
        "Respite Care",
        "Continuing Care Retirement Community"
      ],
      "features": [
        "24-hour Nursing",
        "Game Room",
        "Courtyard",
        "Physical Therapy",
        "Fitness Programs",
        "Housekeeping"
      ],
      "capacity": 176,
      "ratings": {
        "overall": 4.9,
        "care_quality": 4.1,
        "facilities": 4.8,
        "staff": 4.0,
        "value": 4.0,
        "review_count": 68
      },
      "city_slug": "chicago-il"
    },
    {
      "id": "fac_houston-tx_001",
      "name": "Leisure Care of Houston",
      "address": "9841 Washington Blvd",
      "city": "Houston",
      "state": "Texas",
      "zip_code": "21913",
      "phone": "(950) 555-2112",
      "website": "https://www.leisurecarehouston.com",
      "coordinates": {
        "lat": 29.718048779326384,
        "lng": -95.34600000032923
      },
      "facility_type": [
        "Hospice Care",
        "Respite Care"
      ],
      "features": [
        "Fitness Programs",
        "Courtyard",
        "Pet Friendly",
        "Game Room",
        "Weekly Events"
      ],
      "capacity": 246,
      "ratings": {
        "overall": 4.9,
        "care_quality": 3.8,
        "facilities": 3.5,
        "staff": 4.1,
        "value": 3.7,
        "review_count": 89
      },
      "city_slug": "houston-tx"
    },
    {
      "id": "fac_houston-tx_002",
      "name": "The Arbor Company of Houston",
      "address": "8277 Main St",
      "city": "Houston",
      "state": "Texas",
      "zip_code": "52097",
      "phone": "(755) 555-2656",
      "website": "https://www.thearborcompanyhouston.com",
      "coordinates": {
        "lat": 29.73735493365972,
        "lng": -95.32762623400528
      },
      "facility_type": [
        "Hospice Care",
        "Continuing Care Retirement Community",
        "Skilled Nursing"
      ],
      "features": [
        "Fine Dining",
        "Private Rooms",
        "Arts & Crafts Studio",
        "Social Activities",
        "Courtyard",
        "Movie Theater",
        "24-hour Nursing"
      ],
      "capacity": 91,
      "ratings": {
        "overall": 3.8,
        "care_quality": 3.6,
        "facilities": 3.5,
        "staff": 4.8,
        "value": 3.8,
        "review_count": 69
      },
      "city_slug": "houston-tx"
    },
    {
      "id": "fac_houston-tx_003",
      "name": "Sunrise Senior Living of Houston",
      "address": "1745 Washington Blvd",
      "city": "Houston",
      "state": "Texas",
      "zip_code": "29216",
      "phone": "(234) 555-3427",
      "website": "https://www.sunriseseniorlivinghouston.com",
      "coordinates": {
        "lat": 29.80917756016837,
        "lng": -95.39867347120604
      },
      "facility_type": [
        "Assisted Living"
      ],
      "features": [
        "Weekly Events",
        "Fitness Center",
        "Physical Therapy",
        "Restaurant-style Dining"
      ],
      "capacity": 180,
      "ratings": {
        "overall": 3.6,
        "care_quality": 4.7,
        "facilities": 4.9,
        "staff": 3.8,
        "value": 4.9,
        "review_count": 50
      },
      "city_slug": "houston-tx"
    },
    {
      "id": "fac_houston-tx_004",
      "name": "The Arbor Company of Houston",
      "address": "7938 Main St",
      "city": "Houston",
      "state": "Texas",
      "zip_code": "93286",
      "phone": "(784) 555-9493",
      "website": "https://www.thearborcompanyhouston.com",
      "coordinates": {
        "lat": 29.722013051078342,
        "lng": -95.40494125111235
      },
      "facility_type": [
        "Continuing Care Retirement Community",
        "Respite Care"
      ],
      "features": [
        "24-hour Nursing",
        "Swimming Pool",
        "Walking Paths"
      ],
      "capacity": 80,
      "ratings": {
        "overall": 4.4,
        "care_quality": 4.4,
        "facilities": 4.5,
        "staff": 4.7,
        "value": 4.4,
        "review_count": 50
      },
      "city_slug": "houston-tx"
    },
    {
      "id": "fac_houston-tx_005",
      "name": "Sunrise Senior Living of Houston",
      "address": "3178 Oak Ave",
      "city": "Houston",
      "state": "Texas",
      "zip_code": "59579",
      "phone": "(695) 555-2117",
      "website": "https://www.sunriseseniorlivinghouston.com",
      "coordinates": {
        "lat": 29.74760273268221,
        "lng": -95.33435645379916
      },
      "facility_type": [
        "Respite Care"
      ],
      "features": [
        "Beauty Salon",
        "24-hour Nursing",
        "Social Activities"
      ],
      "capacity": 228,
      "ratings": {
        "overall": 4.6,
        "care_quality": 3.8,
        "facilities": 4.0,
        "staff": 3.5,
        "value": 5.0,
        "review_count": 41
      },
      "city_slug": "houston-tx"
    },
    {
      "id": "fac_houston-tx_006",
      "name": "Silverado Senior Living of Houston",
      "address": "6610 Lake St",
      "city": "Houston",
      "state": "Texas",
      "zip_code": "73838",
      "phone": "(799) 555-9154",
      "website": "https://www.silveradoseniorlivinghouston.com",
      "coordinates": {
        "lat": 29.738653908732875,
        "lng": -95.38640084669018
      },
      "facility_type": [
        "Skilled Nursing"
      ],
      "features": [
        "Pet Friendly",
        "Restaurant-style Dining",
        "Weekly Events",
        "Arts & Crafts Studio"
      ],
      "capacity": 136,
      "ratings": {
        "overall": 4.2,
        "care_quality": 3.9,
        "facilities": 4.9,
        "staff": 4.7,
        "value": 4.2,
        "review_count": 52
      },
      "city_slug": "houston-tx"
    },
    {
      "id": "fac_houston-tx_007",
      "name": "Elmcroft Senior Living of Houston",
      "address": "7848 Maple Dr",
      "city": "Houston",
      "state": "Texas",
      "zip_code": "89241",
      "phone": "(724) 555-5488",
      "website": "https://www.elmcrtseniorlivinghouston.com",
      "coordinates": {
        "lat": 29.743682080502463,
        "lng": -95.33390189195522
      },
      "facility_type": [
        "Respite Care",
        "Skilled Nursing",
        "Rehabilitation"
      ],
      "features": [
        "Movie Theater",
        "Private Rooms",
        "Housekeeping",
        "Community Garden",
        "Emergency Call System",
        "Beauty Salon"
      ],
      "capacity": 157,
      "ratings": {
        "overall": 4.4,
        "care_quality": 4.3,
        "facilities": 4.1,
        "staff": 4.9,
        "value": 4.2,
        "review_count": 37
      },
      "city_slug": "houston-tx"
    },
    {
      "id": "fac_houston-tx_008",
      "name": "Senior Lifestyle of Houston",
      "address": "6174 Park Rd",
      "city": "Houston",
      "state": "Texas",
      "zip_code": "31163",
      "phone": "(889) 555-2717",
      "website": "https://www.seniorlifestylehouston.com",
      "coordinates": {
        "lat": 29.728681509980987,
        "lng": -95.38735303673414
      },
      "facility_type": [
        "Independent Living"
      ],
      "features": [
        "Social Activities",
        "Transportation Services",
        "Concierge Services",
        "Movie Theater",
        "Emergency Call System"
      ],
      "capacity": 196,
      "ratings": {
        "overall": 4.9,
        "care_quality": 4.8,
        "facilities": 4.7,
        "staff": 5.0,
        "value": 4.7,
        "review_count": 14
      },
      "city_slug": "houston-tx"
    },
    {
      "id": "fac_houston-tx_009",
      "name": "The Arbor Company of Houston",
      "address": "6112 Lake St",
      "city": "Houston",
      "state": "Texas",
      "zip_code": "50728",
      "phone": "(748) 555-9627",
      "website": "https://www.thearborcompanyhouston.com",
      "coordinates": {
        "lat": 29.74430722523935,
        "lng": -95.39586654101207
      },
      "facility_type": [
        "Respite Care"
      ],
      "features": [
        "Courtyard",
        "Game Room",
        "Housekeeping",
        "Emergency Call System",
        "24-hour Nursing"
      ],
      "capacity": 81,
      "ratings": {
        "overall": 3.5,
        "care_quality": 3.6,
        "facilities": 4.5,
        "staff": 4.3,
        "value": 3.8,
        "review_count": 19
      },
      "city_slug": "houston-tx"
    },
    {
      "id": "fac_philadelphia-pa_001",
      "name": "Watermark Retirement of Philadelphia",
      "address": "7747 Main St",
      "city": "Philadelphia",
      "state": "Pennsylvania",
      "zip_code": "36100",
      "phone": "(497) 555-7977",
      "website": "https://www.watermarkretirementphiladelphia.com",
      "coordinates": {
        "lat": 39.98483133200123,
        "lng": -75.16773408730279
      },
      "facility_type": [
        "Skilled Nursing"
      ],
      "features": [
        "Emergency Call System",
        "Movie Theater",
        "Pet Friendly",
        "Wellness Center"
      ],
      "capacity": 101,
      "ratings": {
        "overall": 4.4,
        "care_quality": 4.5,
        "facilities": 3.5,
        "staff": 4.8,
        "value": 4.1,
        "review_count": 63
      },
      "city_slug": "philadelphia-pa"
    },
    {
      "id": "fac_philadelphia-pa_002",
      "name": "Senior Lifestyle of Philadelphia",
      "address": "3505 Washington Blvd",
      "city": "Philadelphia",
      "state": "Pennsylvania",
      "zip_code": "66379",
      "phone": "(640) 555-4726",
      "website": "https://www.seniorlifestylephiladelphia.com",
      "coordinates": {
        "lat": 39.98210613396061,
        "lng": -75.1441073056421
      },
      "facility_type": [
        "Rehabilitation",
        "Respite Care"
      ],
      "features": [
        "24-hour Staff",
        "24-hour Nursing",
        "Concierge Services",
        "Transportation Services",
        "Arts & Crafts Studio"
      ],
      "capacity": 245,
      "ratings": {
        "overall": 4.6,
        "care_quality": 4.0,
        "facilities": 3.5,
        "staff": 3.6,
        "value": 4.0,
        "review_count": 23
      },
      "city_slug": "philadelphia-pa"
    },
    {
      "id": "fac_philadelphia-pa_003",
      "name": "Atria Senior Living of Philadelphia",
      "address": "2813 Lake St",
      "city": "Philadelphia",
      "state": "Pennsylvania",
      "zip_code": "28501",
      "phone": "(713) 555-6640",
      "website": "https://www.atriaseniorlivingphiladelphia.com",
      "coordinates": {
        "lat": 39.98497172977487,
        "lng": -75.15523395143116
      },
      "facility_type": [
        "Memory Care"
      ],
      "features": [
        "Fitness Center",
        "Game Room",
        "Community Garden",
        "Housekeeping",
        "Emergency Call System",
        "Library"
      ],
      "capacity": 185,
      "ratings": {
        "overall": 4.3,
        "care_quality": 4.4,
        "facilities": 3.7,
        "staff": 3.8,
        "value": 4.5,
        "review_count": 25
      },
      "city_slug": "philadelphia-pa"
    },
    {
      "id": "fac_philadelphia-pa_004",
      "name": "Holiday Retirement of Philadelphia",
      "address": "158 Oak Ave",
      "city": "Philadelphia",
      "state": "Pennsylvania",
      "zip_code": "95741",
      "phone": "(547) 555-9268",
      "website": "https://www.holidayretirementphiladelphia.com",
      "coordinates": {
        "lat": 39.934807912492666,
        "lng": -75.13674649500315
      },
      "facility_type": [
        "Rehabilitation",
        "Continuing Care Retirement Community",
        "Skilled Nursing"
      ],
      "features": [
        "Game Room",
        "Fitness Center",
        "Community Garden"
      ],
      "capacity": 185,
      "ratings": {
        "overall": 4.9,
        "care_quality": 4.7,
        "facilities": 4.2,
        "staff": 4.0,
        "value": 4.7,
        "review_count": 25
      },
      "city_slug": "philadelphia-pa"
    },
    {
      "id": "fac_philadelphia-pa_005",
      "name": "Elmcroft Senior Living of Philadelphia",
      "address": "8015 Washington Blvd",
      "city": "Philadelphia",
      "state": "Pennsylvania",
      "zip_code": "60966",
      "phone": "(976) 555-3446",
      "website": "https://www.elmcrtseniorlivingphiladelphia.com",
      "coordinates": {
        "lat": 39.92658257452705,
        "lng": -75.15182935383119
      },
      "facility_type": [
        "Independent Living",
        "Skilled Nursing"
      ],
      "features": [
        "Weekly Events",
        "Fitness Programs",
        "Movie Theater",
        "Emergency Call System",
        "Arts & Crafts Studio",
        "Social Activities",
        "Game Room"
      ],
      "capacity": 93,
      "ratings": {
        "overall": 3.7,
        "care_quality": 4.2,
        "facilities": 4.5,
        "staff": 3.9,
        "value": 5.0,
        "review_count": 69
      },
      "city_slug": "philadelphia-pa"
    },
    {
      "id": "fac_philadelphia-pa_006",
      "name": "Sunrise Senior Living of Philadelphia",
      "address": "7518 Lake St",
      "city": "Philadelphia",
      "state": "Pennsylvania",
      "zip_code": "37829",
      "phone": "(407) 555-7789",
      "website": "https://www.sunriseseniorlivingphiladelphia.com",
      "coordinates": {
        "lat": 39.94937404173861,
        "lng": -75.17397689152523
      },
      "facility_type": [
        "Memory Care",
        "Hospice Care",
        "Continuing Care Retirement Community"
      ],
      "features": [
        "Swimming Pool",
        "24-hour Nursing",
        "Fitness Programs",
        "Transportation Services",
        "Walking Paths"
      ],
      "capacity": 99,
      "ratings": {
        "overall": 4.7,
        "care_quality": 4.7,
        "facilities": 4.6,
        "staff": 4.9,
        "value": 4.1,
        "review_count": 93
      },
      "city_slug": "philadelphia-pa"
    },
    {
      "id": "fac_phoenix-az_001",
      "name": "Holiday Retirement of Phoenix",
      "address": "3427 Oak Ave",
      "city": "Phoenix",
      "state": "Arizona",
      "zip_code": "85619",
      "phone": "(673) 555-5404",
      "website": "https://www.holidayretirementphoenix.com",
      "coordinates": {
        "lat": 33.47543048248127,
        "lng": -112.08085065933986
      },
      "facility_type": [
        "Continuing Care Retirement Community"
      ],
      "features": [
        "24-hour Staff",
        "Transportation Services",
        "Fitness Center",
        "Fine Dining",
        "24-hour Nursing"
      ],
      "capacity": 234,
      "ratings": {
        "overall": 4.2,
        "care_quality": 4.3,
        "facilities": 5.0,
        "staff": 3.8,
        "value": 4.3,
        "review_count": 57
      },
      "city_slug": "phoenix-az"
    },
    {
      "id": "fac_phoenix-az_002",
      "name": "Artis Senior Living of Phoenix",
      "address": "3308 Oak Ave",
      "city": "Phoenix",
      "state": "Arizona",
      "zip_code": "93555",
      "phone": "(700) 555-7323",
      "website": "https://www.artisseniorlivingphoenix.com",
      "coordinates": {
        "lat": 33.41636773724821,
        "lng": -112.06484350026248
      },
      "facility_type": [
        "Memory Care"
      ],
      "features": [
        "Arts & Crafts Studio",
        "24-hour Staff",
        "Movie Theater",
        "Social Activities"
      ],
      "capacity": 92,
      "ratings": {
        "overall": 3.8,
        "care_quality": 3.9,
        "facilities": 4.9,
        "staff": 3.6,
        "value": 4.2,
        "review_count": 37
      },
      "city_slug": "phoenix-az"
    },
    {
      "id": "fac_phoenix-az_003",
      "name": "The Arbor Company of Phoenix",
      "address": "4936 Main St",
      "city": "Phoenix",
      "state": "Arizona",
      "zip_code": "99476",
      "phone": "(968) 555-6970",
      "website": "https://www.thearborcompanyphoenix.com",
      "coordinates": {
        "lat": 33.41539456707583,
        "lng": -112.09009422175919
      },
      "facility_type": [
        "Skilled Nursing",
        "Respite Care",
        "Memory Care"
      ],
      "features": [
        "Social Activities",
        "Fitness Center",
        "Walking Paths",
        "24-hour Staff"
      ],
      "capacity": 81,
      "ratings": {
        "overall": 4.6,
        "care_quality": 4.1,
        "facilities": 4.6,
        "staff": 3.5,
        "value": 4.9,
        "review_count": 55
      },
      "city_slug": "phoenix-az"
    },
    {
      "id": "fac_phoenix-az_004",
      "name": "Merrill Gardens of Phoenix",
      "address": "2497 Park Rd",
      "city": "Phoenix",
      "state": "Arizona",
      "zip_code": "97228",
      "phone": "(682) 555-7268",
      "website": "https://www.merrillgardensphoenix.com",
      "coordinates": {
        "lat": 33.44193090430999,
        "lng": -112.05108440127681
      },
      "facility_type": [
        "Independent Living"
      ],
      "features": [
        "Concierge Services",
        "Courtyard",
        "Arts & Crafts Studio",
        "Housekeeping",
        "Fine Dining"
      ],
      "capacity": 214,
      "ratings": {
        "overall": 4.0,
        "care_quality": 3.8,
        "facilities": 4.2,
        "staff": 4.2,
        "value": 4.3,
        "review_count": 36
      },
      "city_slug": "phoenix-az"
    },
    {
      "id": "fac_phoenix-az_005",
      "name": "Oakmont Senior Living of Phoenix",
      "address": "6371 Park Rd",
      "city": "Phoenix",
      "state": "Arizona",
      "zip_code": "23125",
      "phone": "(833) 555-5769",
      "website": "https://www.oakmontseniorlivingphoenix.com",
      "coordinates": {
        "lat": 33.494236358843274,
        "lng": -112.10002347363958
      },
      "facility_type": [
        "Rehabilitation",
        "Hospice Care"
      ],
      "features": [
        "Transportation Services",
        "24-hour Nursing",
        "Restaurant-style Dining",
        "Private Rooms"
      ],
      "capacity": 171,
      "ratings": {
        "overall": 3.6,
        "care_quality": 4.0,
        "facilities": 4.3,
        "staff": 4.7,
        "value": 4.2,
        "review_count": 53
      },
      "city_slug": "phoenix-az"
    },
    {
      "id": "fac_phoenix-az_006",
      "name": "Erickson Living of Phoenix",
      "address": "9238 Park Rd",
      "city": "Phoenix",
      "state": "Arizona",
      "zip_code": "56102",
      "phone": "(732) 555-4500",
      "website": "https://www.ericksonlivingphoenix.com",
      "coordinates": {
        "lat": 33.46449667261999,
        "lng": -112.06151853417268
      },
      "facility_type": [
        "Rehabilitation",
        "Independent Living"
      ],
      "features": [
        "Wellness Center",
        "Emergency Call System",
        "Restaurant-style Dining",
        "24-hour Staff",
        "Weekly Events",
        "Private Rooms"
      ],
      "capacity": 62,
      "ratings": {
        "overall": 4.8,
        "care_quality": 3.7,
        "facilities": 4.1,
        "staff": 3.8,
        "value": 3.5,
        "review_count": 59
      },
      "city_slug": "phoenix-az"
    },
    {
      "id": "fac_phoenix-az_007",
      "name": "Brookdale Senior Living of Phoenix",
      "address": "3876 Park Rd",
      "city": "Phoenix",
      "state": "Arizona",
      "zip_code": "61334",
      "phone": "(970) 555-5786",
      "website": "https://www.brookdaleseniorlivingphoenix.com",
      "coordinates": {
        "lat": 33.420633251469575,
        "lng": -112.12015917995417
      },
      "facility_type": [
        "Independent Living",
        "Continuing Care Retirement Community",
        "Assisted Living"
      ],
      "features": [
        "Fitness Programs",
        "Physical Therapy",
        "Movie Theater",
        "Private Rooms",
        "Walking Paths",
        "Beauty Salon"
      ],
      "capacity": 170,
      "ratings": {
        "overall": 4.1,
        "care_quality": 3.8,
        "facilities": 4.6,
        "staff": 4.6,
        "value": 3.8,
        "review_count": 80
      },
      "city_slug": "phoenix-az"
    },
    {
      "id": "fac_phoenix-az_008",
      "name": "Sunrise Villa of Phoenix",
      "address": "5290 Park Rd",
      "city": "Phoenix",
      "state": "Arizona",
      "zip_code": "94810",
      "phone": "(852) 555-5749",
      "website": "https://www.sunrisevillaphoenix.com",
      "coordinates": {
        "lat": 33.47451683217876,
        "lng": -112.08960350958887
      },
      "facility_type": [
        "Respite Care",
        "Memory Care",
        "Independent Living"
      ],
      "features": [
        "Emergency Call System",
        "Fitness Programs",
        "Courtyard",
        "Pet Friendly"
      ],
      "capacity": 91,
      "ratings": {
        "overall": 3.7,
        "care_quality": 4.5,
        "facilities": 4.7,
        "staff": 4.6,
        "value": 4.7,
        "review_count": 75
      },
      "city_slug": "phoenix-az"
    },
    {
      "id": "fac_phoenix-az_009",
      "name": "Five Star Senior Living of Phoenix",
      "address": "7727 Main St",
      "city": "Phoenix",
      "state": "Arizona",
      "zip_code": "58022",
      "phone": "(933) 555-5251",
      "website": "https://www.fivestarseniorlivingphoenix.com",
      "coordinates": {
        "lat": 33.409917688124324,
        "lng": -112.03302409150866
      },
      "facility_type": [
        "Skilled Nursing"
      ],
      "features": [
        "Wellness Center",
        "Beauty Salon",
        "Community Garden"
      ],
      "capacity": 133,
      "ratings": {
        "overall": 3.7,
        "care_quality": 4.1,
        "facilities": 3.6,
        "staff": 4.8,
        "value": 4.0,
        "review_count": 34
      },
      "city_slug": "phoenix-az"
    },
    {
      "id": "fac_san-antonio-tx_001",
      "name": "Legend Senior Living of San Antonio",
      "address": "9801 Maple Dr",
      "city": "San Antonio",
      "state": "Texas",
      "zip_code": "40741",
      "phone": "(334) 555-5135",
      "website": "https://www.legendseniorlivingsanantonio.com",
      "coordinates": {
        "lat": 34.36269418751265,
        "lng": -101.57871800076028
      },
      "facility_type": [
        "Assisted Living"
      ],
      "features": [
        "Swimming Pool",
        "24-hour Nursing",
        "Housekeeping",
        "Library"
      ],
      "capacity": 186,
      "ratings": {
        "overall": 4.4,
        "care_quality": 4.6,
        "facilities": 3.8,
        "staff": 4.9,
        "value": 4.3,
        "review_count": 21
      },
      "city_slug": "san-antonio-tx"
    },
    {
      "id": "fac_san-antonio-tx_002",
      "name": "Life Care Services of San Antonio",
      "address": "1895 Washington Blvd",
      "city": "San Antonio",
      "state": "Texas",
      "zip_code": "59916",
      "phone": "(844) 555-5878",
      "website": "https://www.lifecareservicessanantonio.com",
      "coordinates": {
        "lat": 37.198329068294655,
        "lng": -98.21270345441978
      },
      "facility_type": [
        "Respite Care",
        "Assisted Living"
      ],
      "features": [
        "Arts & Crafts Studio",
        "Movie Theater",
        "Library"
      ],
      "capacity": 59,
      "ratings": {
        "overall": 4.1,
        "care_quality": 3.8,
        "facilities": 3.8,
        "staff": 3.9,
        "value": 3.6,
        "review_count": 69
      },
      "city_slug": "san-antonio-tx"
    },
    {
      "id": "fac_san-antonio-tx_003",
      "name": "Elmcroft Senior Living of San Antonio",
      "address": "2602 Oak Ave",
      "city": "San Antonio",
      "state": "Texas",
      "zip_code": "94538",
      "phone": "(884) 555-6965",
      "website": "https://www.elmcrtseniorlivingsanantonio.com",
      "coordinates": {
        "lat": 45.48284746618524,
        "lng": -70.58760924027291
      },
      "facility_type": [
        "Respite Care",
        "Hospice Care",
        "Assisted Living"
      ],
      "features": [
        "Emergency Call System",
        "Restaurant-style Dining",
        "Fine Dining",
        "Transportation Services"
      ],
      "capacity": 205,
      "ratings": {
        "overall": 4.7,
        "care_quality": 4.3,
        "facilities": 4.3,
        "staff": 4.4,
        "value": 4.3,
        "review_count": 43
      },
      "city_slug": "san-antonio-tx"
    },
    {
      "id": "fac_san-antonio-tx_004",
      "name": "Oakmont Senior Living of San Antonio",
      "address": "8287 Lake St",
      "city": "San Antonio",
      "state": "Texas",
      "zip_code": "44091",
      "phone": "(641) 555-6575",
      "website": "https://www.oakmontseniorlivingsanantonio.com",
      "coordinates": {
        "lat": 28.13777181348312,
        "lng": -93.7548610782803
      },
      "facility_type": [
        "Skilled Nursing",
        "Memory Care",
        "Continuing Care Retirement Community"
      ],
      "features": [
        "Courtyard",
        "Transportation Services",
        "Private Rooms"
      ],
      "capacity": 151,
      "ratings": {
        "overall": 4.6,
        "care_quality": 4.3,
        "facilities": 4.8,
        "staff": 4.2,
        "value": 4.4,
        "review_count": 46
      },
      "city_slug": "san-antonio-tx"
    },
    {
      "id": "fac_san-antonio-tx_005",
      "name": "Sunrise Senior Living of San Antonio",
      "address": "7197 Main St",
      "city": "San Antonio",
      "state": "Texas",
      "zip_code": "52416",
      "phone": "(762) 555-8928",
      "website": "https://www.sunriseseniorlivingsanantonio.com",
      "coordinates": {
        "lat": 26.276556603883773,
        "lng": -105.1152328470089
      },
      "facility_type": [
        "Continuing Care Retirement Community"
      ],
      "features": [
        "Walking Paths",
        "Movie Theater",
        "Fitness Programs",
        "Library",
        "Wellness Center",
        "Private Rooms",
        "Pet Friendly"
      ],
      "capacity": 235,
      "ratings": {
        "overall": 3.6,
        "care_quality": 3.6,
        "facilities": 4.5,
        "staff": 4.8,
        "value": 4.6,
        "review_count": 72
      },
      "city_slug": "san-antonio-tx"
    },
    {
      "id": "fac_san-antonio-tx_006",
      "name": "Watermark Retirement of San Antonio",
      "address": "8058 Lake St",
      "city": "San Antonio",
      "state": "Texas",
      "zip_code": "19726",
      "phone": "(558) 555-4715",
      "website": "https://www.watermarkretirementsanantonio.com",
      "coordinates": {
        "lat": 43.107789980671456,
        "lng": -98.36270650786385
      },
      "facility_type": [
        "Memory Care",
        "Hospice Care",
        "Continuing Care Retirement Community"
      ],
      "features": [
        "Wellness Center",
        "24-hour Staff",
        "Physical Therapy"
      ],
      "capacity": 214,
      "ratings": {
        "overall": 3.5,
        "care_quality": 4.7,
        "facilities": 4.7,
        "staff": 3.8,
        "value": 4.0,
        "review_count": 90
      },
      "city_slug": "san-antonio-tx"
    },
    {
      "id": "fac_san-antonio-tx_007",
      "name": "Merrill Gardens of San Antonio",
      "address": "5315 Washington Blvd",
      "city": "San Antonio",
      "state": "Texas",
      "zip_code": "49140",
      "phone": "(579) 555-4636",
      "website": "https://www.merrillgardenssanantonio.com",
      "coordinates": {
        "lat": 38.546780123826395,
        "lng": -105.87606940216219
      },
      "facility_type": [
        "Skilled Nursing",
        "Rehabilitation",
        "Hospice Care"
      ],
      "features": [
        "Fitness Programs",
        "Restaurant-style Dining",
        "Concierge Services",
        "Fitness Center",
        "Transportation Services",
        "Wellness Center",
        "Walking Paths"
      ],
      "capacity": 111,
      "ratings": {
        "overall": 3.6,
        "care_quality": 4.6,
        "facilities": 4.7,
        "staff": 5.0,
        "value": 3.8,
        "review_count": 44
      },
      "city_slug": "san-antonio-tx"
    },
    {
      "id": "fac_san-antonio-tx_008",
      "name": "Sunrise Villa of San Antonio",
      "address": "8029 Maple Dr",
      "city": "San Antonio",
      "state": "Texas",
      "zip_code": "34289",
      "phone": "(942) 555-2515",
      "website": "https://www.sunrisevillasanantonio.com",
      "coordinates": {
        "lat": 38.16563310984086,
        "lng": -123.75986791343004
      },
      "facility_type": [
        "Assisted Living",
        "Memory Care",
        "Respite Care"
      ],
      "features": [
        "Fine Dining",
        "Fitness Programs",
        "Fitness Center",
        "Social Activities",
        "Swimming Pool"
      ],
      "capacity": 137,
      "ratings": {
        "overall": 4.9,
        "care_quality": 3.5,
        "facilities": 4.9,
        "staff": 4.7,
        "value": 4.4,
        "review_count": 33
      },
      "city_slug": "san-antonio-tx"
    },
    {
      "id": "fac_san-antonio-tx_009",
      "name": "Atria Senior Living of San Antonio",
      "address": "7286 Park Rd",
      "city": "San Antonio",
      "state": "Texas",
      "zip_code": "87769",
      "phone": "(853) 555-2953",
      "website": "https://www.atriaseniorlivingsanantonio.com",
      "coordinates": {
        "lat": 30.23962654337606,
        "lng": -93.39367224615148
      },
      "facility_type": [
        "Rehabilitation",
        "Skilled Nursing"
      ],
      "features": [
        "Swimming Pool",
        "24-hour Staff",
        "Emergency Call System",
        "Private Rooms",
        "Courtyard",
        "Wellness Center"
      ],
      "capacity": 105,
      "ratings": {
        "overall": 4.5,
        "care_quality": 3.6,
        "facilities": 4.2,
        "staff": 4.3,
        "value": 4.1,
        "review_count": 40
      },
      "city_slug": "san-antonio-tx"
    },
    {
      "id": "fac_san-antonio-tx_010",
      "name": "Artis Senior Living of San Antonio",
      "address": "5980 Park Rd",
      "city": "San Antonio",
      "state": "Texas",
      "zip_code": "19897",
      "phone": "(269) 555-7443",
      "website": "https://www.artisseniorlivingsanantonio.com",
      "coordinates": {
        "lat": 27.161682185261405,
        "lng": -80.79500706259086
      },
      "facility_type": [
        "Continuing Care Retirement Community",
        "Skilled Nursing",
        "Respite Care"
      ],
      "features": [
        "Fitness Center",
        "Swimming Pool",
        "Movie Theater",
        "Private Rooms",
        "Arts & Crafts Studio",
        "Fitness Programs",
        "Walking Paths"
      ],
      "capacity": 102,
      "ratings": {
        "overall": 4.1,
        "care_quality": 4.8,
        "facilities": 4.3,
        "staff": 4.6,
        "value": 4.9,
        "review_count": 59
      },
      "city_slug": "san-antonio-tx"
    },
    {
      "id": "fac_san-diego-ca_001",
      "name": "Holiday Retirement of San Diego",
      "address": "1888 Washington Blvd",
      "city": "San Diego",
      "state": "California",
      "zip_code": "29670",
      "phone": "(452) 555-8430",
      "website": "https://www.holidayretirementsandiego.com",
      "coordinates": {
        "lat": 35.55884748199214,
        "lng": -93.80178269402394
      },
      "facility_type": [
        "Respite Care",
        "Continuing Care Retirement Community"
      ],
      "features": [
        "Beauty Salon",
        "Social Activities",
        "Arts & Crafts Studio",
        "Transportation Services"
      ],
      "capacity": 199,
      "ratings": {
        "overall": 4.9,
        "care_quality": 3.8,
        "facilities": 4.2,
        "staff": 4.9,
        "value": 3.6,
        "review_count": 47
      },
      "city_slug": "san-diego-ca"
    },
    {
      "id": "fac_san-diego-ca_002",
      "name": "Artis Senior Living of San Diego",
      "address": "973 Lake St",
      "city": "San Diego",
      "state": "California",
      "zip_code": "80183",
      "phone": "(486) 555-4483",
      "website": "https://www.artisseniorlivingsandiego.com",
      "coordinates": {
        "lat": 25.498248278510207,
        "lng": -94.0849013942598
      },
      "facility_type": [
        "Assisted Living"
      ],
      "features": [
        "Fitness Programs",
        "Library",
        "24-hour Nursing",
        "Concierge Services",
        "Social Activities",
        "Walking Paths"
      ],
      "capacity": 114,
      "ratings": {
        "overall": 4.9,
        "care_quality": 4.9,
        "facilities": 4.8,
        "staff": 3.7,
        "value": 4.7,
        "review_count": 86
      },
      "city_slug": "san-diego-ca"
    },
    {
      "id": "fac_san-diego-ca_003",
      "name": "Watermark Retirement of San Diego",
      "address": "7052 Main St",
      "city": "San Diego",
      "state": "California",
      "zip_code": "16443",
      "phone": "(357) 555-7511",
      "website": "https://www.watermarkretirementsandiego.com",
      "coordinates": {
        "lat": 25.239468825320287,
        "lng": -117.61886735015638
      },
      "facility_type": [
        "Respite Care"
      ],
      "features": [
        "Social Activities",
        "Housekeeping",
        "Fine Dining"
      ],
      "capacity": 69,
      "ratings": {
        "overall": 3.6,
        "care_quality": 4.5,
        "facilities": 4.6,
        "staff": 4.7,
        "value": 3.9,
        "review_count": 12
      },
      "city_slug": "san-diego-ca"
    },
    {
      "id": "fac_san-diego-ca_004",
      "name": "Senior Lifestyle of San Diego",
      "address": "9963 Washington Blvd",
      "city": "San Diego",
      "state": "California",
      "zip_code": "16881",
      "phone": "(473) 555-6231",
      "website": "https://www.seniorlifestylesandiego.com",
      "coordinates": {
        "lat": 41.11321013137335,
        "lng": -66.09496686894455
      },
      "facility_type": [
        "Independent Living",
        "Respite Care",
        "Assisted Living"
      ],
      "features": [
        "Game Room",
        "Fitness Programs",
        "Concierge Services",
        "Housekeeping",
        "Emergency Call System"
      ],
      "capacity": 76,
      "ratings": {
        "overall": 3.9,
        "care_quality": 4.8,
        "facilities": 4.7,
        "staff": 4.1,
        "value": 3.7,
        "review_count": 52
      },
      "city_slug": "san-diego-ca"
    },
    {
      "id": "fac_san-diego-ca_005",
      "name": "Belmont Village of San Diego",
      "address": "4121 Washington Blvd",
      "city": "San Diego",
      "state": "California",
      "zip_code": "97830",
      "phone": "(503) 555-6505",
      "website": "https://www.belmontvillagesandiego.com",
      "coordinates": {
        "lat": 31.896561679795255,
        "lng": -90.40324863937438
      },
      "facility_type": [
        "Continuing Care Retirement Community"
      ],
      "features": [
        "Pet Friendly",
        "Weekly Events",
        "Restaurant-style Dining",
        "Courtyard",
        "24-hour Nursing",
        "Emergency Call System"
      ],
      "capacity": 191,
      "ratings": {
        "overall": 4.0,
        "care_quality": 3.6,
        "facilities": 3.9,
        "staff": 4.2,
        "value": 3.6,
        "review_count": 43
      },
      "city_slug": "san-diego-ca"
    },
    {
      "id": "fac_san-diego-ca_006",
      "name": "Legend Senior Living of San Diego",
      "address": "4482 Maple Dr",
      "city": "San Diego",
      "state": "California",
      "zip_code": "93373",
      "phone": "(684) 555-5613",
      "website": "https://www.legendseniorlivingsandiego.com",
      "coordinates": {
        "lat": 39.366580517684476,
        "lng": -109.38913190726196
      },
      "facility_type": [
        "Rehabilitation"
      ],
      "features": [
        "Pet Friendly",
        "Fitness Center",
        "Housekeeping",
        "Library"
      ],
      "capacity": 243,
      "ratings": {
        "overall": 4.1,
        "care_quality": 4.3,
        "facilities": 4.5,
        "staff": 4.6,
        "value": 3.8,
        "review_count": 92
      },
      "city_slug": "san-diego-ca"
    },
    {
      "id": "fac_san-diego-ca_007",
      "name": "Life Care Services of San Diego",
      "address": "3381 Lake St",
      "city": "San Diego",
      "state": "California",
      "zip_code": "53324",
      "phone": "(891) 555-1538",
      "website": "https://www.lifecareservicessandiego.com",
      "coordinates": {
        "lat": 48.48630485767341,
        "lng": -89.48384758371273
      },
      "facility_type": [
        "Respite Care"
      ],
      "features": [
        "Movie Theater",
        "Swimming Pool",
        "Game Room",
        "Concierge Services",
        "Transportation Services",
        "Fitness Programs",
        "Library"
      ],
      "capacity": 57,
      "ratings": {
        "overall": 3.7,
        "care_quality": 4.9,
        "facilities": 4.1,
        "staff": 4.8,
        "value": 4.0,
        "review_count": 10
      },
      "city_slug": "san-diego-ca"
    },
    {
      "id": "fac_san-diego-ca_008",
      "name": "Brookdale Senior Living of San Diego",
      "address": "420 Washington Blvd",
      "city": "San Diego",
      "state": "California",
      "zip_code": "94658",
      "phone": "(985) 555-5340",
      "website": "https://www.brookdaleseniorlivingsandiego.com",
      "coordinates": {
        "lat": 34.06572119772425,
        "lng": -66.60864803791738
      },
      "facility_type": [
        "Rehabilitation"
      ],
      "features": [
        "Arts & Crafts Studio",
        "Weekly Events",
        "Restaurant-style Dining",
        "Courtyard",
        "24-hour Staff",
        "Private Rooms",
        "Physical Therapy"
      ],
      "capacity": 190,
      "ratings": {
        "overall": 4.0,
        "care_quality": 3.8,
        "facilities": 4.3,
        "staff": 4.5,
        "value": 4.8,
        "review_count": 60
      },
      "city_slug": "san-diego-ca"
    },
    {
      "id": "fac_dallas-tx_001",
      "name": "Capital Senior Living of Dallas",
      "address": "9688 Maple Dr",
      "city": "Dallas",
      "state": "Texas",
      "zip_code": "41898",
      "phone": "(490) 555-8644",
      "website": "https://www.capitalseniorlivingdallas.com",
      "coordinates": {
        "lat": 30.0112830066381,
        "lng": -104.44250048330625
      },
      "facility_type": [
        "Rehabilitation"
      ],
      "features": [
        "Library",
        "Wellness Center",
        "Housekeeping",
        "Arts & Crafts Studio",
        "24-hour Nursing",
        "Social Activities",
        "Fine Dining"
      ],
      "capacity": 177,
      "ratings": {
        "overall": 4.4,
        "care_quality": 4.0,
        "facilities": 3.7,
        "staff": 4.1,
        "value": 4.5,
        "review_count": 52
      },
      "city_slug": "dallas-tx"
    },
    {
      "id": "fac_dallas-tx_002",
      "name": "The Arbor Company of Dallas",
      "address": "7533 Main St",
      "city": "Dallas",
      "state": "Texas",
      "zip_code": "29357",
      "phone": "(805) 555-9504",
      "website": "https://www.thearborcompanydallas.com",
      "coordinates": {
        "lat": 24.30178171768094,
        "lng": -107.29409225967136
      },
      "facility_type": [
        "Respite Care",
        "Skilled Nursing",
        "Rehabilitation"
      ],
      "features": [
        "24-hour Nursing",
        "Wellness Center",
        "Physical Therapy",
        "Movie Theater",
        "Housekeeping",
        "Courtyard",
        "Fine Dining"
      ],
      "capacity": 210,
      "ratings": {
        "overall": 3.5,
        "care_quality": 4.1,
        "facilities": 3.6,
        "staff": 4.7,
        "value": 4.4,
        "review_count": 88
      },
      "city_slug": "dallas-tx"
    },
    {
      "id": "fac_dallas-tx_003",
      "name": "Senior Lifestyle of Dallas",
      "address": "5765 Main St",
      "city": "Dallas",
      "state": "Texas",
      "zip_code": "92122",
      "phone": "(994) 555-7938",
      "website": "https://www.seniorlifestyledallas.com",
      "coordinates": {
        "lat": 45.432543548271326,
        "lng": -83.01995133396764
      },
      "facility_type": [
        "Assisted Living",
        "Independent Living"
      ],
      "features": [
        "Fine Dining",
        "24-hour Staff",
        "Wellness Center",
        "Weekly Events",
        "Pet Friendly"
      ],
      "capacity": 231,
      "ratings": {
        "overall": 3.9,
        "care_quality": 4.1,
        "facilities": 3.9,
        "staff": 4.9,
        "value": 3.8,
        "review_count": 70
      },
      "city_slug": "dallas-tx"
    },
    {
      "id": "fac_dallas-tx_004",
      "name": "Oakmont Senior Living of Dallas",
      "address": "3166 Main St",
      "city": "Dallas",
      "state": "Texas",
      "zip_code": "87996",
      "phone": "(356) 555-6394",
      "website": "https://www.oakmontseniorlivingdallas.com",
      "coordinates": {
        "lat": 32.798213699031706,
        "lng": -75.56215817086219
      },
      "facility_type": [
        "Rehabilitation",
        "Assisted Living"
      ],
      "features": [
        "Fitness Center",
        "Emergency Call System",
        "Community Garden",
        "Swimming Pool",
        "Wellness Center"
      ],
      "capacity": 155,
      "ratings": {
        "overall": 4.6,
        "care_quality": 3.6,
        "facilities": 4.0,
        "staff": 4.8,
        "value": 3.8,
        "review_count": 39
      },
      "city_slug": "dallas-tx"
    },
    {
      "id": "fac_dallas-tx_005",
      "name": "Leisure Care of Dallas",
      "address": "5358 Maple Dr",
      "city": "Dallas",
      "state": "Texas",
      "zip_code": "94475",
      "phone": "(381) 555-9227",
      "website": "https://www.leisurecaredallas.com",
      "coordinates": {
        "lat": 43.087097899160455,
        "lng": -91.5534580798827
      },
      "facility_type": [
        "Respite Care",
        "Rehabilitation",
        "Memory Care"
      ],
      "features": [
        "Swimming Pool",
        "Fitness Programs",
        "Beauty Salon"
      ],
      "capacity": 100,
      "ratings": {
        "overall": 4.7,
        "care_quality": 4.5,
        "facilities": 4.9,
        "staff": 4.5,
        "value": 4.9,
        "review_count": 42
      },
      "city_slug": "dallas-tx"
    },
    {
      "id": "fac_dallas-tx_006",
      "name": "Belmont Village of Dallas",
      "address": "7360 Park Rd",
      "city": "Dallas",
      "state": "Texas",
      "zip_code": "21138",
      "phone": "(246) 555-7348",
      "website": "https://www.belmontvillagedallas.com",
      "coordinates": {
        "lat": 25.56883191153435,
        "lng": -112.83435461550427
      },
      "facility_type": [
        "Skilled Nursing",
        "Respite Care"
      ],
      "features": [
        "Wellness Center",
        "Concierge Services",
        "24-hour Staff",
        "Fitness Programs",
        "Private Rooms",
        "Movie Theater"
      ],
      "capacity": 233,
      "ratings": {
        "overall": 4.3,
        "care_quality": 4.2,
        "facilities": 3.6,
        "staff": 4.9,
        "value": 4.9,
        "review_count": 50
      },
      "city_slug": "dallas-tx"
    },
    {
      "id": "fac_dallas-tx_007",
      "name": "Elmcroft Senior Living of Dallas",
      "address": "8017 Oak Ave",
      "city": "Dallas",
      "state": "Texas",
      "zip_code": "97717",
      "phone": "(252) 555-7552",
      "website": "https://www.elmcrtseniorlivingdallas.com",
      "coordinates": {
        "lat": 45.36311570066408,
        "lng": -114.33506517336119
      },
      "facility_type": [
        "Respite Care",
        "Skilled Nursing"
      ],
      "features": [
        "Walking Paths",
        "Swimming Pool",
        "Fitness Center",
        "Fitness Programs",
        "Pet Friendly",
        "Emergency Call System",
        "Concierge Services"
      ],
      "capacity": 122,
      "ratings": {
        "overall": 4.3,
        "care_quality": 4.6,
        "facilities": 3.6,
        "staff": 3.9,
        "value": 4.5,
        "review_count": 59
      },
      "city_slug": "dallas-tx"
    },
    {
      "id": "fac_dallas-tx_008",
      "name": "Oakmont Senior Living of Dallas",
      "address": "1294 Park Rd",
      "city": "Dallas",
      "state": "Texas",
      "zip_code": "71273",
      "phone": "(379) 555-7035",
      "website": "https://www.oakmontseniorlivingdallas.com",
      "coordinates": {
        "lat": 30.766078072358333,
        "lng": -87.98503898128624
      },
      "facility_type": [
        "Skilled Nursing",
        "Assisted Living",
        "Independent Living"
      ],
      "features": [
        "Swimming Pool",
        "Housekeeping",
        "Library",
        "Restaurant-style Dining",
        "Fine Dining",
        "Courtyard"
      ],
      "capacity": 111,
      "ratings": {
        "overall": 3.7,
        "care_quality": 3.5,
        "facilities": 4.3,
        "staff": 3.9,
        "value": 4.0,
        "review_count": 22
      },
      "city_slug": "dallas-tx"
    },
    {
      "id": "fac_san-jose-ca_001",
      "name": "Sunrise Senior Living of San Jose",
      "address": "1811 Maple Dr",
      "city": "San Jose",
      "state": "California",
      "zip_code": "67220",
      "phone": "(661) 555-3110",
      "website": "https://www.sunriseseniorlivingsanjose.com",
      "coordinates": {
        "lat": 33.021274195064585,
        "lng": -116.83457849562915
      },
      "facility_type": [
        "Respite Care"
      ],
      "features": [
        "Wellness Center",
        "Social Activities",
        "Fine Dining",
        "Courtyard"
      ],
      "capacity": 69,
      "ratings": {
        "overall": 4.3,
        "care_quality": 4.8,
        "facilities": 3.5,
        "staff": 4.0,
        "value": 3.5,
        "review_count": 39
      },
      "city_slug": "san-jose-ca"
    },
    {
      "id": "fac_san-jose-ca_002",
      "name": "Holiday Retirement of San Jose",
      "address": "6496 Lake St",
      "city": "San Jose",
      "state": "California",
      "zip_code": "70123",
      "phone": "(962) 555-6584",
      "website": "https://www.holidayretirementsanjose.com",
      "coordinates": {
        "lat": 28.580722275940563,
        "lng": -97.7089585611541
      },
      "facility_type": [
        "Assisted Living",
        "Hospice Care"
      ],
      "features": [
        "Fine Dining",
        "Fitness Center",
        "Walking Paths"
      ],
      "capacity": 244,
      "ratings": {
        "overall": 4.4,
        "care_quality": 4.4,
        "facilities": 4.3,
        "staff": 4.8,
        "value": 4.7,
        "review_count": 41
      },
      "city_slug": "san-jose-ca"
    },
    {
      "id": "fac_san-jose-ca_003",
      "name": "Erickson Living of San Jose",
      "address": "8958 Lake St",
      "city": "San Jose",
      "state": "California",
      "zip_code": "57470",
      "phone": "(459) 555-3191",
      "website": "https://www.ericksonlivingsanjose.com",
      "coordinates": {
        "lat": 43.451026793033094,
        "lng": -120.92637568611573
      },
      "facility_type": [
        "Hospice Care",
        "Continuing Care Retirement Community",
        "Assisted Living"
      ],
      "features": [
        "Library",
        "Transportation Services",
        "Community Garden"
      ],
      "capacity": 191,
      "ratings": {
        "overall": 3.8,
        "care_quality": 3.7,
        "facilities": 3.9,
        "staff": 4.0,
        "value": 4.0,
        "review_count": 35
      },
      "city_slug": "san-jose-ca"
    },
    {
      "id": "fac_san-jose-ca_004",
      "name": "Watermark Retirement of San Jose",
      "address": "6369 Lake St",
      "city": "San Jose",
      "state": "California",
      "zip_code": "45739",
      "phone": "(489) 555-6952",
      "website": "https://www.watermarkretirementsanjose.com",
      "coordinates": {
        "lat": 34.23443399284828,
        "lng": -102.11271132505851
      },
      "facility_type": [
        "Respite Care"
      ],
      "features": [
        "Fine Dining",
        "Walking Paths",
        "Movie Theater",
        "Social Activities",
        "Housekeeping"
      ],
      "capacity": 223,
      "ratings": {
        "overall": 4.1,
        "care_quality": 4.0,
        "facilities": 4.4,
        "staff": 3.7,
        "value": 4.7,
        "review_count": 14
      },
      "city_slug": "san-jose-ca"
    },
    {
      "id": "fac_san-jose-ca_005",
      "name": "The Arbor Company of San Jose",
      "address": "4857 Main St",
      "city": "San Jose",
      "state": "California",
      "zip_code": "29038",
      "phone": "(343) 555-5768",
      "website": "https://www.thearborcompanysanjose.com",
      "coordinates": {
        "lat": 45.49190574172291,
        "lng": -96.8213808391742
      },
      "facility_type": [
        "Rehabilitation",
        "Independent Living",
        "Memory Care"
      ],
      "features": [
        "Private Rooms",
        "Physical Therapy",
        "Movie Theater",
        "Community Garden",
        "Fine Dining"
      ],
      "capacity": 204,
      "ratings": {
        "overall": 4.2,
        "care_quality": 4.2,
        "facilities": 4.6,
        "staff": 4.1,
        "value": 4.6,
        "review_count": 70
      },
      "city_slug": "san-jose-ca"
    }
  ],
  "meta": {
    "total_count": 82,
    "cities_covered": 10,
    "last_updated": "2025-04-29T23:37:13.603882"
  }
}